{"type":"FeatureCollection","features":[{"type":"Feature","geometry":{"type":"Point","coordinates":[50.1578,26.2361]},"properties":{"name":"Naval Support Activity Bahrain","type":"naval_base","country":"BH","region":"middle_east","operator":"US Navy"}},{"type":"Feature","geometry":{"type":"Point","coordinates":[49.6256,25.1136]},"properties":{"name":"Al Udeid Air Base","type":"airfield","country":"QA","region":"middle_east","operator":"US Air Force"}},{"type":"Feature","geometry":{"type":"Point","coordinates":[47.791,29.3375]},"properties":{"name":"Camp Arifjan","type":"base","country":"KW","region":"middle_east","operator":"US Army"}},{"type":"Feature","geometry":{"type":"Point","coordinates":[47.988,29.067]},"properties":{"name":"Ali Al Salem Air Base","type":"airfield","country":"KW","region":"middle_east","operator":"US Air Force"}},{"type":"Feature","geometry":{"type":"Point","coordinates":[54.6465,24.4289]},"properties":{"name":"Al Dhafra Air Base","type":"airfield","country":"AE","region":"middle_east","operator":"US Air Force"}},{"type":"Feature","geometry":{"type":"Point","coordinates":[35.5114,31.865]},"properties":{"name":"Nevatim Air Base","type":"airfield","country":"IL","region":"middle_east","operator":"IAF"}},{"type":"Feature","geometry":{"type":"Point","coordinates":[34.6677,31.2877]},"properties":{"name":"Hatzerim Air Base","type":"airfield","country":"IL","region":"middle_east","operator":"IAF"}},{"type":"Feature","geometry":{"type":"Point","coordinates":[35.1833,32.6653]},"properties":{"name":"Ramat David Air Base","type":"airfield","country":"IL","region":"middle_east","operator":"IAF"}},{"type":"Feature","geometry":{"type":"Point","coordinates":[51.1508,35.7219]},"properties":{"name":"Mehrabad Air Base","type":"airfield","country":"IR","region":"middle_east","operator":"IRIAF"}},{"type":"Feature","geometry":{"type":"Point","coordinates":[51.3942,35.6456]},"properties":{"name":"Tehran IRGC HQ","type":"base","country":"IR","region":"middle_east","operator":"IRGC"}},{"type":"Feature","geometry":{"type":"Point","coordinates":[32.8158,39.9228]},"properties":{"name":"Incirlik Air Base","type":"airfield","country":"TR","region":"middle_east","operator":"NATO"}},{"type":"Feature","geometry":{"type":"Point","coordinates":[36.9022,30.6625]},"properties":{"name":"Khmeimim Air Base","type":"airfield","country":"SY","region":"middle_east","operator":"Russian AF"}},{"type":"Feature","geometry":{"type":"Point","coordinates":[35.7796,35.3725]},"properties":{"name":"Tartus Naval Facility","type":"naval_base","country":"SY","region":"middle_east","operator":"Russian Navy"}},{"type":"Feature","geometry":{"type":"Point","coordinates":[33.9116,35.1364]},"properties":{"name":"RAF Akrotiri","type":"airfield","country":"CY","region":"middle_east","operator":"RAF"}},{"type":"Feature","geometry":{"type":"Point","coordinates":[37.6173,55.7558]},"properties":{"name":"Moscow Kremlin","type":"base","country":"RU","region":"eastern_europe","operator":"Russian MoD"}},{"type":"Feature","geometry":{"type":"Point","coordinates":[33.5254,44.3661]},"properties":{"name":"Sevastopol Naval Base","type":"naval_base","country":"UA","region":"eastern_europe","operator":"Russian Navy"}},{"type":"Feature","geometry":{"type":"Point","coordinates":[30.2217,50.4037]},"properties":{"name":"Boryspil Air Base","type":"airfield","country":"UA","region":"eastern_europe","operator":"Ukrainian AF"}},{"type":"Feature","geometry":{"type":"Point","coordinates":[24.3252,54.7268]},"properties":{"name":"Ramstein Air Base","type":"airfield","country":"DE","region":"eastern_europe","operator":"USAFE"}},{"type":"Feature","geometry":{"type":"Point","coordinates":[126.9784,37.5665]},"properties":{"name":"Yongsan Garrison","type":"base","country":"KR","region":"east_asia","operator":"US Army"}},{"type":"Feature","geometry":{"type":"Point","coordinates":[127.0304,36.952]},"properties":{"name":"Osan Air Base","type":"airfield","country":"KR","region":"east_asia","operator":"US Air Force"}},{"type":"Feature","geometry":{"type":"Point","coordinates":[139.3507,35.4539]},"properties":{"name":"Yokosuka Naval Base","type":"naval_base","country":"JP","region":"east_asia","operator":"US Navy"}},{"type":"Feature","geometry":{"type":"Point","coordinates":[127.7692,26.3516]},"properties":{"name":"Kadena Air Base","type":"airfield","country":"JP","region":"east_asia","operator":"US Air Force"}},{"type":"Feature","geometry":{"type":"Point","coordinates":[43.1456,11.5475]},"properties":{"name":"Camp Lemonnier","type":"base","country":"DJ","region":"horn_of_africa","operator":"US Navy"}},{"type":"Feature","geometry":{"type":"Point","coordinates":[-77.0089,38.8719]},"properties":{"name":"The Pentagon","type":"headquarters","country":"US","region":"north_america","operator":"US DoD"}},{"type":"Feature","geometry":{"type":"Point","coordinates":[-104.8614,38.7461]},"properties":{"name":"NORAD / Cheyenne Mountain","type":"command_center","country":"US","region":"north_america","operator":"NORAD"}},{"type":"Feature","geometry":{"type":"Point","coordinates":[-73.9712,40.7128]},"properties":{"name":"Fort Hamilton","type":"base","country":"US","region":"north_america","operator":"US Army"}},{"type":"Feature","geometry":{"type":"Point","coordinates":[127.018,37.5085]},"properties":{"name":"Camp Humphreys","type":"base","country":"KR","region":"east_asia","operator":"US Army"}},{"type":"Feature","geometry":{"type":"Point","coordinates":[139.4583,35.4567]},"properties":{"name":"Yokota Air Base","type":"airfield","country":"JP","region":"east_asia","operator":"USAF"}},{"type":"Feature","geometry":{"type":"Point","coordinates":[120.5606,15.186]},"properties":{"name":"Clark Air Base","type":"airfield","country":"PH","region":"southeast_asia","operator":"Philippine AF (former USAF)"}},{"type":"Feature","geometry":{"type":"Point","coordinates":[8.5228,49.4348]},"properties":{"name":"US Army Garrison Heidelberg (former)","type":"base","country":"DE","region":"western_europe","operator":"US Army (closed)"}},{"type":"Feature","geometry":{"type":"Point","coordinates":[7.0629,50.3569]},"properties":{"name":"Büchel Air Base","type":"airfield","country":"DE","region":"western_europe","operator":"Luftwaffe (NATO nuclear sharing)"}},{"type":"Feature","geometry":{"type":"Point","coordinates":[12.6167,41.6539]},"properties":{"name":"Naval Air Station Sigonella","type":"airfield","country":"IT","region":"southern_europe","operator":"US Navy"}},{"type":"Feature","geometry":{"type":"Point","coordinates":[14.1833,40.8194]},"properties":{"name":"NSA Naples (Capodichino)","type":"base","country":"IT","region":"southern_europe","operator":"US Navy / NATO JFC"}},{"type":"Feature","geometry":{"type":"Point","coordinates":[23.9417,37.8933]},"properties":{"name":"NSA Souda Bay","type":"base","country":"GR","region":"southern_europe","operator":"US Navy"}},{"type":"Feature","geometry":{"type":"Point","coordinates":[-5.35,36.15]},"properties":{"name":"Naval Base Gibraltar","type":"naval_base","country":"GI","region":"southern_europe","operator":"Royal Navy"}},{"type":"Feature","geometry":{"type":"Point","coordinates":[25.5167,61.0]},"properties":{"name":"Jägala Base","type":"base","country":"EE","region":"eastern_europe","operator":"NATO Enhanced Forward Presence"}},{"type":"Feature","geometry":{"type":"Point","coordinates":[24.35,56.95]},"properties":{"name":"Adazi Military Base","type":"base","country":"LV","region":"eastern_europe","operator":"NATO Enhanced Forward Presence"}},{"type":"Feature","geometry":{"type":"Point","coordinates":[24.39,54.6478]},"properties":{"name":"Rukla Military Base","type":"base","country":"LT","region":"eastern_europe","operator":"NATO Enhanced Forward Presence"}},{"type":"Feature","geometry":{"type":"Point","coordinates":[20.1333,51.0833]},"properties":{"name":"Redzikowo Base (Aegis Ashore)","type":"missile_defense","country":"PL","region":"eastern_europe","operator":"US Navy / NATO"}},{"type":"Feature","geometry":{"type":"Point","coordinates":[24.1217,43.69]},"properties":{"name":"Deveselu Air Base (Aegis Ashore)","type":"missile_defense","country":"RO","region":"eastern_europe","operator":"US Navy / NATO"}},{"type":"Feature","geometry":{"type":"Point","coordinates":[55.97,54.7431]},"properties":{"name":"Engels Air Base","type":"airfield","country":"RU","region":"russia","operator":"Russian AF (strategic bombers)"}},{"type":"Feature","geometry":{"type":"Point","coordinates":[40.1933,56.0522]},"properties":{"name":"Savasleyka Air Base","type":"airfield","country":"RU","region":"russia","operator":"Russian AF"}},{"type":"Feature","geometry":{"type":"Point","coordinates":[48.7167,55.15]},"properties":{"name":"Kazan Aviation Plant","type":"factory","country":"RU","region":"russia","operator":"Russian MoD"}},{"type":"Feature","geometry":{"type":"Point","coordinates":[37.7464,55.5739]},"properties":{"name":"National Defense Management Center","type":"command_center","country":"RU","region":"russia","operator":"Russian MoD"}},{"type":"Feature","geometry":{"type":"Point","coordinates":[83.2667,54.0]},"properties":{"name":"Novosibirsk Chemical Concentrates Plant","type":"nuclear_facility","country":"RU","region":"russia","operator":"Rosatom"}},{"type":"Feature","geometry":{"type":"Point","coordinates":[20.3458,54.6531]},"properties":{"name":"Kaliningrad Military District HQ","type":"headquarters","country":"RU","region":"eastern_europe","operator":"Russian MoD"}},{"type":"Feature","geometry":{"type":"Point","coordinates":[116.39,39.91]},"properties":{"name":"PLA Joint Operations Center (Beijing)","type":"headquarters","country":"CN","region":"east_asia","operator":"PLA CMC"}},{"type":"Feature","geometry":{"type":"Point","coordinates":[117.8167,38.9833]},"properties":{"name":"Tianjin PLAAF Base","type":"airfield","country":"CN","region":"east_asia","operator":"PLA Air Force"}},{"type":"Feature","geometry":{"type":"Point","coordinates":[110.35,19.9333]},"properties":{"name":"Haikou PLAN Aviation Base","type":"airfield","country":"CN","region":"east_asia","operator":"PLA Navy Aviation"}},{"type":"Feature","geometry":{"type":"Point","coordinates":[118.3333,24.5333]},"properties":{"name":"Xiamen PLA Garrison","type":"base","country":"CN","region":"east_asia","operator":"PLA (Taiwan Strait)"}},{"type":"Feature","geometry":{"type":"Point","coordinates":[80.2667,35.5333]},"properties":{"name":"Aksai Chin Military Post","type":"base","country":"CN","region":"south_asia","operator":"PLA (disputed)"}},{"type":"Feature","geometry":{"type":"Point","coordinates":[44.4389,33.3153]},"properties":{"name":"Camp Victory / Baghdad Intl Airport","type":"airfield","country":"IQ","region":"middle_east","operator":"Iraqi AF / Coalition"}},{"type":"Feature","geometry":{"type":"Point","coordinates":[43.1194,36.3211]},"properties":{"name":"Qayyarah West Air Base","type":"airfield","country":"IQ","region":"middle_east","operator":"Iraqi AF / Coalition"}},{"type":"Feature","geometry":{"type":"Point","coordinates":[40.4667,37.0667]},"properties":{"name":"Kobani/Harab Isk Air Base","type":"airfield","country":"SY","region":"middle_east","operator":"US (Coalition)"}},{"type":"Feature","geometry":{"type":"Point","coordinates":[36.2167,33.4167]},"properties":{"name":"Mezzeh Military Airport","type":"airfield","country":"SY","region":"middle_east","operator":"Syrian AF"}},{"type":"Feature","geometry":{"type":"Point","coordinates":[38.8833,34.55]},"properties":{"name":"Tiyas (T4) Air Base","type":"airfield","country":"SY","region":"middle_east","operator":"Syrian AF / IRGC"}},{"type":"Feature","geometry":{"type":"Point","coordinates":[50.1578,26.2283]},"properties":{"name":"Isa Air Base","type":"airfield","country":"BH","region":"middle_east","operator":"RBAF / USAF"}},{"type":"Feature","geometry":{"type":"Point","coordinates":[45.0297,23.9433]},"properties":{"name":"Prince Sultan Air Base","type":"airfield","country":"SA","region":"middle_east","operator":"RSAF / USAF"}},{"type":"Feature","geometry":{"type":"Point","coordinates":[125.7553,39.0194]},"properties":{"name":"Pyongyang Sunan International","type":"airfield","country":"KP","region":"east_asia","operator":"KPA Air Force"}},{"type":"Feature","geometry":{"type":"Point","coordinates":[125.3667,38.9833]},"properties":{"name":"Sunchon Air Base","type":"airfield","country":"KP","region":"east_asia","operator":"KPA Air Force"}},{"type":"Feature","geometry":{"type":"Point","coordinates":[43.1292,11.5475]},"properties":{"name":"Chinese PLA Support Base Djibouti","type":"base","country":"DJ","region":"horn_of_africa","operator":"PLA"}},{"type":"Feature","geometry":{"type":"Point","coordinates":[43.1456,11.5475]},"properties":{"name":"Japanese Self-Defense Forces Djibouti","type":"base","country":"DJ","region":"horn_of_africa","operator":"JSDF"}},{"type":"Feature","geometry":{"type":"Point","coordinates":[144.7963,13.5833]},"properties":{"name":"Andersen Air Force Base","type":"airfield","country":"GU","region":"pacific","operator":"USAF"}},{"type":"Feature","geometry":{"type":"Point","coordinates":[167.7333,8.7167]},"properties":{"name":"Kwajalein Atoll (Reagan Test Site)","type":"missile_defense","country":"MH","region":"pacific","operator":"US Army"}},{"type":"Feature","geometry":{"type":"Point","coordinates":[-159.7853,-9.2281]},"properties":{"name":"AUKUS Base (Henderson Field)","type":"airfield","country":"PN","region":"pacific","operator":"UK (potential AUKUS)"}}]}